[{
        "id": "3501013540",
        "name": "永承診所",
        "type": "一般診所（醫務室）",
        "number": "02 -27182618",
        "address": "臺北市松山區敦化北路155巷9號地下一層",
        "item": "不分科",
        "time": "星期一上午看診、星期二上午看診、星期三上午休診、星期四上午看診、星期五上午看診、星期六上午休診、星期日上午休診、星期一下午看診、星期二下午看診、星期三下午看診、星期四下午看診、星期五下午看診、星期六下午休診、星期日下午休診、星期一晚上休診、星期二晚上休診、星期三晚上看診、星期四晚上休診、星期五晚上休診、星期六晚上休診、星期日晚上休診",
        "remark": "-",
        "county": "臺北市",
        "town": "松山區"
    },
  "geometry": {
                "type": "Point",
                "coordinates": [
                   121.550415,
 				   25.054216
                ]
            },
    {
        "id": "3501014350",
        "name": "聯青診所",
        "type": "一般診所（醫務室）",
        "number": "02 -25795155",
        "address": "臺北市松山區南京東路4段16號地下一層",
        "item": "不分科",
        "time": "星期一上午看診、星期二上午休診、星期三上午看診、星期四上午看診、星期五上午看診、星期六上午看診、星期日上午休診、星期一下午休診、星期二下午休診、星期三下午看診、星期四下午看診、星期五下午看診、星期六下午看診、星期日下午休診、星期一晚上休診、星期二晚上看診、星期三晚上休診、星期四晚上休診、星期五晚上休診、星期六晚上休診、星期日晚上休診",
        "remark": "1.採預約制,敬請來電預約 2.周六為隔週看診(建議就診前來電確認是否開診) 3.春節連續假期期間均休診",
        "county": "臺北市",
        "town": "松山區"
    },
       "geometry": {
                "type": "Point",
                "coordinates": [
                   121.553037,
                   25.051324
                ]
            },
    {
        "id": "3501104546",
        "name": "雅得麗生活診所",
        "type": "一般診所（醫務室）",
        "number": "02 -25239915",
        "address": "臺北市中山區中山北路2段33號3樓",
        "item": "不分科",
        "time": "星期一上午看診、星期二上午看診、星期三上午看診、星期四上午看診、星期五上午看診、星期六上午看診、星期日上午休診、星期一下午看診、星期二下午看診、星期三下午看診、星期四下午看診、星期五下午看診、星期六下午休診、星期日下午休診、星期一晚上看診、星期二晚上看診、星期三晚上看診、星期四晚上看診、星期五晚上看診、星期六晚上看診、星期日晚上休診",
        "remark": "1/29 - 2/ 6全部停診，2/ 7  後恢復正常看診。",
        "county": "臺北市",
        "town": "中山區"
    },
       "geometry": {
                "type": "Point",
                "coordinates": [
                   121.522836,
                   25.053381
                ]
            },
    {
        "id": "3501104644",
        "name": "青山診所",
        "type": "一般診所（醫務室）",
        "number": "02 -25810725",
        "address": "臺北市中山區林森北路432號2樓－3",
        "item": "不分科",
        "time": "星期一上午看診、星期二上午看診、星期三上午看診、星期四上午看診、星期五上午看診、星期六上午看診、星期日上午休診、星期一下午休診、星期二下午休診、星期三下午休診、星期四下午休診、星期五下午休診、星期六下午休診、星期日下午休診、星期一晚上看診、星期二晚上看診、星期三晚上看診、星期四晚上看診、星期五晚上看診、星期六晚上看診、星期日晚上休診",
        "remark": "-",
        "county": "臺北市",
        "town": "中山區"
    },
      "geometry": {
                "type": "Point",
                "coordinates": [
                  121.52545,
                  25.060137
                ]
            },
    {
        "id": "3501105445",
        "name": "莊宇龍診所",
        "type": "一般診所（醫務室）",
        "number": "02 -25331255",
        "address": "臺北市中山區北安路637號",
        "item": "耳鼻喉科",
        "time": "星期一上午看診、星期二上午看診、星期三上午看診、星期四上午看診、星期五上午看診、星期六上午看診、星期日上午看診、星期一下午看診、星期二下午看診、星期三下午看診、星期四下午看診、星期五下午看診、星期六下午看診、星期日下午看診、星期一晚上看診、星期二晚上看診、星期三晚上看診、星期四晚上看診、星期五晚上看診、星期六晚上看診、星期日晚上看診",
        "remark": "-",
        "county": "臺北市",
        "town": "中山區"
    },
       "geometry": {
                "type": "Point",
                "coordinates": [
                 121.54903,
                  25.083708
                ]
            },
    {
        "id": "3501185916",
        "name": "元泰診所",
        "type": "西醫診所",
        "number": "02 -23680599",
        "address": "臺北市中正區羅斯福路3段2號2樓",
        "item": "內科",
        "time": "星期一上午看診、星期二上午看診、星期三上午看診、星期四上午休診、星期五上午看診、星期六上午看診、星期日上午休診、星期一下午看診、星期二下午看診、星期三下午看診、星期四下午休診、星期五下午看診、星期六下午看診、星期日下午休診、星期一晚上休診、星期二晚上休診、星期三晚上休診、星期四晚上休診、星期五晚上休診、星期六晚上休診、星期日晚上休診",
        "remark": "-",
        "county": "臺北市",
        "town": "中正區"
    },
      "geometry": {
                "type": "Point",
                "coordinates": [
                121.524817,
                25.023533
                ]
            },
    {
        "id": "3501185961",
        "name": "博士診所",
        "type": "西醫診所",
        "number": "02 -23120120",
        "address": "臺北市中正區南陽街8號地下（地下一層）",
        "item": "家醫科",
        "time": "星期一上午休診、星期二上午休診、星期三上午休診、星期四上午休診、星期五上午休診、星期六上午休診、星期日上午休診、星期一下午看診、星期二下午看診、星期三下午看診、星期四下午看診、星期五下午看診、星期六下午休診、星期日下午休診、星期一晚上看診、星期二晚上看診、星期三晚上看診、星期四晚上看診、星期五晚上看診、星期六晚上休診、星期日晚上休診",
        "remark": "-",
        "county": "臺北市",
        "town": "中正區"
    },
       "geometry": {
                "type": "Point",
                "coordinates": [
                121.516057,
                25.045209
                ]
            },
    {
        "id": "3501185989",
        "name": "衡觀診所",
        "type": "西醫診所",
        "number": "02 -27713992",
        "address": "臺北市中正區衡陽路20號6樓",
        "item": "不分科",
        "time": "星期一上午休診、星期二上午休診、星期三上午休診、星期四上午休診、星期五上午休診、星期六上午看診、星期日上午休診、星期一下午休診、星期二下午看診、星期三下午看診、星期四下午看診、星期五下午看診、星期六下午看診、星期日下午休診、星期一晚上休診、星期二晚上看診、星期三晚上看診、星期四晚上看診、星期五晚上看診、星期六晚上休診、星期日晚上休診",
        "remark": "5/18-5/29休診",
        "county": "臺北市",
        "town": "中正區"
    },
       "geometry": {
                "type": "Point",
                "coordinates": [
                121.512984,
                25.042211
                ]
            },
    {
        "id": "3501186011",
        "name": "鈞安診所",
        "type": "西醫診所",
        "number": "02 -23092030",
        "address": "臺北市中正區中華路2段431號",
        "item": "家醫科",
        "time": "星期一上午看診、星期二上午看診、星期三上午看診、星期四上午看診、星期五上午看診、星期六上午看診、星期日上午休診、星期一下午休診、星期二下午休診、星期三下午休診、星期四下午休診、星期五下午休診、星期六下午休診、星期日下午休診、星期一晚上看診、星期二晚上看診、星期三晚上看診、星期四晚上看診、星期五晚上看診、星期六晚上休診、星期日晚上休診",
        "remark": "10／8（六）休診、10／10（一）休診",
        "county": "臺北市",
        "town": "中正區"
    },
       "geometry": {
                "type": "Point",
                "coordinates": [
                121.509035,
                  25.025275
                ]
            },
    {
        "id": "3501105472",
        "name": "創健診所",
        "type": "一般診所（醫務室）",
        "number": "02 -25000758",
        "address": "臺北市中山區復興北路378號地下1層",
        "item": "不分科",
        "time": "星期一上午看診、星期二上午看診、星期三上午看診、星期四上午看診、星期五上午看診、星期六上午休診、星期日上午休診、星期一下午看診、星期二下午看診、星期三下午看診、星期四下午看診、星期五下午看診、星期六下午休診、星期日下午休診、星期一晚上休診、星期二晚上休診、星期三晚上休診、星期四晚上休診、星期五晚上休診、星期六晚上休診、星期日晚上休診",
        "remark": "春節期間（1/27~ 2/1）休診",
        "county": "臺北市",
        "town": "中山區"
    },
       "geometry": {
                "type": "Point",
                "coordinates": [
                121.54388,
                25.060862
                ]
            },
    {
        "id": "3501105543",
        "name": "長春耳鼻喉科診所",
        "type": "專科診所",
        "number": "02 -25235575",
        "address": "臺北市中山區民生東路2段110號",
        "item": "耳鼻喉科",
        "time": "星期一上午看診、星期二上午看診、星期三上午看診、星期四上午看診、星期五上午看診、星期六上午看診、星期日上午休診、星期一下午看診、星期二下午看診、星期三下午看診、星期四下午看診、星期五下午看診、星期六下午休診、星期日下午休診、星期一晚上看診、星期二晚上看診、星期三晚上看診、星期四晚上看診、星期五晚上看診、星期六晚上休診、星期日晚上休診",
        "remark": "-",
        "county": "臺北市",
        "town": "中山區"
    },
       "geometry": {
                "type": "Point",
                "coordinates": [
                121.530789,
                25.054745
                ]
            },
    {
        "id": "3501105767",
        "name": "愛鄰診所",
        "type": "一般診所（醫務室）",
        "number": "02 -25322333",
        "address": "臺北市中山區北安路520－1號",
        "item": "兒科",
        "time": "星期一上午看診、星期二上午看診、星期三上午看診、星期四上午看診、星期五上午看診、星期六上午看診、星期日上午休診、星期一下午看診、星期二下午看診、星期三下午看診、星期四下午看診、星期五下午看診、星期六下午休診、星期日下午休診、星期一晚上看診、星期二晚上看診、星期三晚上看診、星期四晚上看診、星期五晚上看診、星期六晚上看診、星期日晚上休診",
        "remark": "10／10早診正常、夜診休息，其他都正常看診",
        "county": "臺北市",
        "town": "中山區"
    },
      "geometry": {
                "type": "Point",
                "coordinates": [
               121.5461,
               25.079699
                ]
            },
]
